,route_index,route_name,name,stop_id,stop_poi_id,lon,lat,route,trans,su
0,0,1号线,刘园,102 3,BV10040578,117.115904,39.207953,120100021504,0,1
1,0,1号线,瑞景新苑,102 115,BV10040824,117.121860,39.200203,120100021504,0,1
2,0,1号线,佳园里,102 215,BV10045128,117.128158,39.191974,120100021504,0,1
3,0,1号线,本溪路,147 347,BV10040573,117.139463,39.185432,120100021504,0,1
4,0,1号线,勤俭道,247 423,BV10040246,117.153675,39.178342,120100021504,0,1
5,0,1号线,洪湖里,342 495,BV10040793,117.161912,39.170889,120100021504,0,1
6,0,1号线,西站,435 566,BV10043783,117.166791,39.156971,120100021504|120100021325,1,1
7,0,1号线,西北角,546 711,BV10040302,117.171661,39.146568,120100021504,0,1
8,0,1号线,西南角,546 820,BV10041177,117.171996,39.137364,120100021504|120100021904,1,1
9,0,1号线,二纬路,547 968,BV10045180,117.174737,39.130318,120100021504,0,1
10,0,1号线,海光寺,601 1122,BV10040424,117.177534,39.122349,120100021504,0,1
11,0,1号线,鞍山道,736 1122,BV10040808,117.187336,39.120355,120100021504,0,1
12,0,1号线,营口道,875 1122,BV10045173,117.197685,39.118628,120100021504|120100021500,1,1
13,0,1号线,小白楼,984 1177,BV10041057,117.215406,39.114911,120100021504,0,1
14,0,1号线,下瓦房,1055 1248,BV10040802,117.222893,39.105200,120100021504|120100021323,1,1
15,0,1号线,南楼,1120 1248,BV10041198,117.223877,39.095998,120100021504,0,1
16,0,1号线,土城,1204 1246,BV10040435,117.232283,39.089216,120100021504,0,1
17,0,1号线,陈塘庄,1263 1274,BV10045181,117.248489,39.083497,120100021504,0,1
18,0,1号线,复兴门,1262 1334,BV10040437,117.260182,39.077205,120100021504,0,1
19,0,1号线,华山里,1262 1386,BV10045182,117.261895,39.066160,120100021504,0,1
20,0,1号线,财经大学,1262 1435,BV10041610,117.276919,39.063938,120100021504,0,1
21,0,1号线,双林,1262 1498,BV10045183,117.292143,39.057365,120100021504,0,1
22,0,1号线,李楼,1262 1580,BV10544486,117.317171,39.054449,120100021504,0,1
23,0,1号线,高庄子,1369 1864,BV11302693,117.360797,39.043101,120100021504,0,1
24,0,1号线,国家会展中心,1486 1865,BV11302695,117.383988,39.028975,120100021504,0,1
25,0,1号线,国瑞路,1548 1865,BV11302692,117.390747,39.021933,120100021504,0,1
26,0,1号线,东沽路,1620 1949,BV10544492,117.408398,39.012409,120100021504,0,1
27,1,2号线,滨海国际机场,1763 820,BV10045192,117.362628,39.132116,120100021904,0,1
28,1,2号线,空港经济区,1661 820,BV10041796,117.335,39.1577,120100021904,0,1
29,1,2号线,国山路,1566 820,BV10045191,117.31,39.1541,120100021904,0,1
30,1,2号线,登州路,1475 820,BV10045190,117.296,39.1505,120100021904,0,1
31,1,2号线,屿东城,1385 820,BV10045189,117.28,39.1472,120100021904,0,1
32,1,2号线,翠阜新村,1289 820,BV10040770,117.258,39.144,120100021904,0,1
33,1,2号线,靖江路,1186 820,BV10040568,117.244243,39.142520,120100021904|120100021323,1,1
34,1,2号线,顺驰桥,1086 820,BV10045188,117.234,39.1414,120100021904,0,1
35,1,2号线,远洋国际中心,977 820,BV10045187,117.221,39.1365,120100021904,0,1
36,1,2号线,天津站,875 820,BV10040400,117.211693,39.137783,120100021904|120100021500|120100031870,1,1
37,1,2号线,建国道,804 820,BV10045186,117.201,39.139,120100021904,0,1
38,1,2号线,东南角,713 820,BV10040681,117.190293,39.136881,120100021904,0,1
39,1,2号线,鼓楼,621 820,BV10040559,117.181228,39.137127,120100021904,0,1
40,1,2号线,西南角,546 820,BV10041177,117.171996,39.137364,120100021504|120100021904,1,1
41,1,2号线,广开四马路,441 820,BV10041973,117.162,39.1377,120100021904,0,1
42,1,2号线,长虹公园,356 820,BV10040946,117.149444,39.137806,120100021904|120100021325,1,1
43,1,2号线,咸阳路,269 820,BV10041925,117.135,39.1378,120100021904,0,1
44,1,2号线,芥园西道,181 820,BV10040821,117.12,39.1427,120100021904,0,1
45,1,2号线,卞兴,94 820,BV10045185,117.109,39.1462,120100021904,0,1
46,1,2号线,曹庄,3 820,BV10045184,117.090954,39.145700,120100021904,0,1
47,2,3号线,小淀,1312 0,BV10041565,117.257642,39.239186,120100021500,0,1
48,2,3号线,丰产河,1221 0,BV10045168,117.236020,39.238160,120100021500,0,1
49,2,3号线,华北集团,1070 63,BV10045169,117.228,39.2276,120100021500,0,1
50,2,3号线,天士力,1004 129,BV10040735,117.215,39.2059,120100021500,0,1
51,2,3号线,宜兴埠,923 209,BV10040722,117.219,39.1976,120100021500,0,1
52,2,3号线,张兴庄,875 340,BV10040924,117.214820,39.191928,120100021500|120100021323,1,1
53,2,3号线,铁东路,875 452,BV10045170,117.207,39.1799,120100021500,0,1
54,2,3号线,北站,875 565,BV10040684,117.207438,39.166648,120100021500|120100021325,1,1
55,2,3号线,中山路,875 653,BV10045171,117.206,39.1618,120100021500,0,1
56,2,3号线,金狮桥,875 735,BV10045172,117.208,39.1511,120100021500,0,1
57,2,3号线,天津站,875 820,BV10040400,117.211693,39.137783,120100021904|120100021500|120100031870,1,1
58,2,3号线,津湾广场,875 928,BV10044418,117.208,39.132,120100021500,0,1
59,2,3号线,和平路,875 1022,BV10040153,117.205,39.1269,120100021500,0,1
60,2,3号线,营口道,875 1122,BV10045173,117.197685,39.118628,120100021504|120100021500,1,1
61,2,3号线,西康路,804 1194,BV10040390,117.188,39.1122,120100021500,0,1
62,2,3号线,吴家窑,744 1256,BV10045174,117.186,39.0998,120100021500,0,1
63,2,3号线,天塔,617 1294,BV10040291,117.178,39.0958,120100021500,0,1
64,2,3号线,周邓纪念馆,501 1294,BV10041355,117.164,39.0927,120100021500,0,1
65,2,3号线,红旗南路,355 1294,BV10045156,117.148149,39.092757,120100021500|120100021325,1,1
66,2,3号线,王顶堤,222 1294,BV10041647,117.139,39.0921,120100021500,0,1
67,2,3号线,华苑,98 1294,BV10045175,117.129,39.0872,120100021500,0,1
68,2,3号线,大学城,19 1397,BV10040172,117.112,39.0724,120100021500,0,1
69,2,3号线,高新区,19 1509,BV10045176,117.099,39.0719,120100021500,0,1
70,2,3号线,学府工业区,19 1614,BV10045177,117.079,39.0719,120100021500,0,1
71,2,3号线,杨伍庄,19 1717,BV10045178,117.07,39.0683,120100021500,0,1
72,2,3号线,南站,19 1815,BV10045179,117.062101,39.057038,120100021500,0,1
73,3,5号线,中医一附院,554 1831,BV10041240,117.184741,39.046873,120100021323,0,1
74,3,5号线,昌凌路,556 1756,BV10045143,117.184775,39.056480,120100021323,0,1
75,3,5号线,凌宾路,556 1668,BV10045142,117.172010,39.068057,120100021323,0,1
76,3,5号线,体育中心,557 1549,BV10042125,117.172458,39.074732,120100021323,0,1
77,3,5号线,肿瘤医院,614 1456,BV10045141,117.184469,39.078996,120100021323|120100021325,1,1
78,3,5号线,天津宾馆,708 1456,BV10040385,117.198548,39.085330,120100021323|120100021325,1,1
79,3,5号线,文化中心,802 1456,BV10045140,117.206929,39.089878,120100021323|120100021325,1,1
80,3,5号线,西南楼,932 1349,BV10041184,117.216060,39.095430,120100021323,0,1
81,3,5号线,下瓦房,1055 1248,BV10040802,117.222893,39.105200,120100021504|120100021323,1,1
82,3,5号线,直沽,1186 1140,BV10045139,117.233925,39.111012,120100021323|120100031870,1,1
83,3,5号线,津塘路,1186 1022,BV10042156,117.241396,39.116533,120100021323,0,1
84,3,5号线,成林道,1186 925,BV10045125,117.245626,39.130300,120100021323,0,1
85,3,5号线,靖江路,1186 820,BV10040568,117.244243,39.142520,120100021904|120100021323,1,1
86,3,5号线,幸福公园,1186 724,BV10045138,117.244190,39.154124,120100021323,0,1
87,3,5号线,月牙河,1186 643,BV10042149,117.245788,39.164793,120100021323,0,1
88,3,5号线,金钟河大街,1185 564,BV10040850,117.241892,39.172135,120100021323|120100021325,1,1
89,3,5号线,建昌道,1186 452,BV10040689,117.234644,39.179628,120100021323,0,1
90,3,5号线,思源路,1068 339,BV10045137,117.227463,39.183388,120100021323,0,1
91,3,5号线,志成路,970 339,BV10045136,117.219132,39.187116,120100021323,0,1
92,3,5号线,张兴庄,875 340,BV10040924,117.214820,39.191928,120100021500|120100021323,1,1
93,3,5号线,宜兴埠北,800 341,BV10045135,117.205425,39.203038,120100021323,0,1
94,3,5号线,辽河北道,701 341,BV10045134,117.200000,39.209751,120100021323,0,1
95,3,5号线,淮河道,626 296,BV10043079,117.192484,39.218578,120100021323,0,1
96,3,5号线,职业大学,576 254,BV10045133,117.181972,39.231034,120100021323,0,1
97,3,5号线,北辰道,562 185,BV10045132,117.173656,39.240641,120100021323,0,1
98,3,5号线,丹河北道,562 97,BV10045131,117.163651,39.252431,120100021323,0,1
99,3,5号线,北辰科技园北,562 6,BV10045130,117.149889,39.267876,120100021323,0,1
100,4,6号线,南孙庄,2000 296,BV10711000,117.318352,39.206528,120100021325,0,1
101,4,6号线,南何庄,1821 298,BV10711010,117.291016,39.206352,120100021325,0,1
102,4,6号线,大毕庄,1595 323,BV10711015,117.279144,39.202998,120100021325,0,1
103,4,6号线,金钟街,1503 421,BV10711011,117.266101,39.199880,120100021325,0,1
104,4,6号线,徐庄子,1416 515,BV10711009,117.254154,39.190924,120100021325,0,1
105,4,6号线,金钟河大街,1185 564,BV10040850,117.241892,39.172135,120100021323|120100021325,1,1
106,4,6号线,民权门,1070 564,BV10711006,117.233382,39.168658,120100021325,0,1
107,4,6号线,北宁公园,972 564,BV10711014,117.223159,39.166274,120100021325,0,1
108,4,6号线,北站,875 565,BV10040684,117.207438,39.166648,120100021500|120100021325,1,1
109,4,6号线,新开河,801 565,BV10711007,117.202847,39.168877,120100021325,0,1
110,4,6号线,外院附中,729 565,BV10710997,117.191830,39.171266,120100021325,0,1
111,4,6号线,天泰路,656 566,BV10711016,117.183317,39.168219,120100021325,0,1
112,4,6号线,北竹林,514 566,BV10711012,117.172709,39.160215,120100021325,0,1
113,4,6号线,西站,435 566,BV10043783,117.166791,39.156971,120100021504|120100021325,1,1
114,4,6号线,复兴路,373 567,BV10710994,117.157852,39.156157,120100021325,0,1
115,4,6号线,人民医院,356 704,BV10710999,117.149712,39.147393,120100021325,0,1
116,4,6号线,长虹公园,356 820,BV10040946,117.149444,39.137806,120100021904|120100021325,1,1
117,4,6号线,宜宾道,356 917,BV10045153,117.149321,39.126417,120100021325,0,1
118,4,6号线,鞍山西道,356 1017,BV10041251,117.149365,39.116530,120100021325,0,1
119,4,6号线,天拖,356 1113,BV10045154,117.149438,39.109224,120100021325,0,1
120,4,6号线,一中心医院,356 1207,BV10045155,117.149454,39.103145,120100021325,0,1
121,4,6号线,红旗南路,355 1294,BV10045156,117.148149,39.092757,120100021500|120100021325,1,1
122,4,6号线,迎风道,355 1377,BV10041288,117.149468,39.086153,120100021325,0,1
123,4,6号线,南翠屏,424 1456,BV10045157,117.158640,39.079964,120100021325,0,1
124,4,6号线,水上公园东路,518 1456,BV10990191,117.173133,39.079509,120100021325,0,1
125,4,6号线,肿瘤医院,614 1456,BV10045141,117.184469,39.078996,120100021323|120100021325,1,1
126,4,6号线,天津宾馆,708 1456,BV10040385,117.198548,39.085330,120100021323|120100021325,1,1
127,4,6号线,文化中心,802 1456,BV10045140,117.206929,39.089878,120100021323|120100021325,1,1
128,4,6号线,乐园道,895 1456,BV10990196,117.217504,39.091252,120100021325,0,1
129,4,6号线,尖山路,934 1493,BV10990190,117.224000,39.087236,120100021325,0,1
130,4,6号线,黑牛城道,934 1550,BV10848348,117.224043,39.081197,120100021325,0,1
131,4,6号线,梅江道,934 1629,BV10990194,117.225609,39.068810,120100021325,0,1
132,4,6号线,左江道,869 1732,BV10990193,117.217741,39.060010,120100021325,0,1
133,4,6号线,梅江公园,869 1818,BV10990195,117.217558,39.052331,120100021325,0,1
134,4,6号线,梅江会展中心,869 1894,BV10990198,117.217726,39.044312,120100021325,0,1
135,4,6号线,解放南路,952 1934,BV10990192,117.234015,39.040749,120100021325,0,1
136,4,6号线,洞庭路,1072 1934,BV10990199,117.245877,39.043590,120100021325,0,1
137,4,6号线,梅林路,1189 1934,BV10990197,117.254780,39.044820,120100021325,0,1
138,5,9号线,东海路,1760 1953,BV10576612,117.737288,39.040571,120100031870,0,1
139,5,9号线,会展中心,1759 1877,BV10576590,117.731698,39.029989,120100031870,0,1
140,5,9号线,太湖路,1760 1800,BV10765842,117.723519,39.019886,120100031870,0,1
141,5,9号线,市民广场,1759 1723,BV10576611,117.703060,39.018183,120100031870,0,1
142,5,9号线,泰达,1759 1646,BV10576610,117.679383,39.025419,120100031870,0,1
143,5,9号线,塘沽,1759 1550,BV10576609,117.661102,39.029451,120100031870,0,1
144,5,9号线,胡家园,1759 1456,BV10576608,117.607373,39.040524,120100031870,0,1
145,5,9号线,钢管公司,1759 1346,BV10576607,117.503891,39.039772,120100031870,0,1
146,5,9号线,军粮城,1759 1249,BV10576606,117.456102,39.048049,120100031870,0,1
147,5,9号线,小东庄,1759 1166,BV10576605,117.403344,39.064397,120100031870,0,1
148,5,9号线,东丽开发区,1733 1140,BV10576604,117.357421,39.079404,120100031870,0,1
149,5,9号线,新立,1662 1140,BV10576603,117.336003,39.085873,120100031870,0,1
150,5,9号线,张贵庄,1587 1140,BV10761742,117.307746,39.092112,120100031870,0,1
151,5,9号线,二号桥,1507 1140,BV10576602,117.293150,39.095180,120100031870,0,1
152,5,9号线,一号桥,1430 1140,BV10576601,117.282902,39.096099,120100031870,0,1
153,5,9号线,中山门,1350 1140,BV10576600,117.264334,39.100869,120100031870,0,1
154,5,9号线,东兴路,1273 1140,BV10576598,117.242570,39.103422,120100031870,0,1
155,5,9号线,直沽,1186 1140,BV10045139,117.233925,39.111012,120100021323|120100031870,1,1
156,5,9号线,十一经路,1083 1033,BV10576597,117.223939,39.121374,120100031870,0,1
157,5,9号线,大王庄,991 940,BV10576596,117.218471,39.127225,120100031870,0,1
158,5,9号线,天津站,875 820,BV10040400,117.211693,39.137783,120100021904|120100021500|120100031870,1,1
