,route_index,route_name,name,stop_id,stop_poi_id,lon,lat,route,trans,su
0,0,S1线,金安桥,270 684,BV11494889,116.162586,39.923298,900000069871|110100023339,1,1
1,0,S1线,四道桥,226 684,BV10813547,116.134010,39.916030,900000069871,0,1
2,0,S1线,桥户营,181 684,BV10813541,116.125809,39.912383,900000069871,0,1
3,0,S1线,上岸,155 711,BV10813543,116.122225,39.905138,900000069871,0,1
4,0,S1线,栗园庄,155 735,BV10813544,116.123254,39.895780,900000069871,0,1
5,0,S1线,小园,131 758,BV10813542,116.114443,39.890465,900000069871,0,1
6,0,S1线,石厂,104 758,BV10813546,116.100334,39.889378,900000069871,0,1
7,1,1号线,古城,334 720,BV10000295,116.190337,39.907450,110100023110,0,1
8,1,1号线,八角游乐园,391 720,BV10013455,116.212684,39.907442,110100023110,0,1
9,1,1号线,八宝山,454 720,BV10000302,116.235948,39.907440,110100023110,0,1
10,1,1号线,玉泉路,505 720,BV10013456,116.252888,39.907433,110100023110,0,1
11,1,1号线,五棵松,555 720,BV10013457,116.273987,39.907456,110100023110,0,1
12,1,1号线,万寿路,603 720,BV10013458,116.294765,39.907474,110100023110,0,1
13,1,1号线,公主坟,650 720,BV10000306,116.309919,39.907469,110100023110|110100023282,1,1
14,1,1号线,军事博物馆,710 720,BV10000188,116.321459,39.907422,110100023110|110100023116,1,1
15,1,1号线,木樨地,769 720,BV10013459,116.337583,39.907379,110100023110,0,1
16,1,1号线,南礼士路,819 720,BV10000309,116.352583,39.907234,110100023110,0,1
17,1,1号线,复兴门,858 720,BV10007375,116.356866,39.907242,110100023110|110100023098,1,1
18,1,1号线,西单,928 720,BV10006791,116.374072,39.907383,110100023110|110100023076,1,1
19,1,1号线,天安门西,972 720,BV10005941,116.391278,39.907472,110100023110,0,1
20,1,1号线,天安门东,1031 720,BV10006499,116.401216,39.907780,110100023110,0,1
21,1,1号线,王府井,1080 720,BV10006496,116.411571,39.908069,110100023110,0,1
22,1,1号线,东单,1116 720,BV10013440,116.418480,39.908325,110100023110|110100023100,1,1
23,1,1号线,建国门,1179 720,BV10013432,116.435806,39.908501,110100023110|110100023098,1,1
24,1,1号线,永安里,1247 720,BV10013460,116.450497,39.908454,110100023110,0,1
25,1,1号线,国贸,1279 720,BV10013461,116.461841,39.909104,110100023110|110100023282,1,1
26,1,1号线,大望路,1337 720,BV10013364,116.475783,39.908287,110100023110|900000028907,1,1
27,1,1号线,四惠,1374 724,BV10000275,116.495456,39.908749,110100023110|110100033086,1,1
28,1,1号线,四惠东,1409 724,BV10007589,116.515664,39.908495,110100023110|110100033086,1,1
29,2,2号线,积水潭,905 555,BV10013430,116.373126,39.948653,110100023098,0,0
30,2,2号线,鼓楼大街,1002 555,BV10013431,116.393776,39.948972,110100023098|110100023114,1,1
31,2,2号线,安定门,1077 555,BV10001936,116.408240,39.949180,110100023098,0,1
32,2,2号线,雍和宫,1116 555,BV10006563,116.417069,39.949336,110100023098|110100023100,1,1
33,2,2号线,东直门,1179 586,BV10002731,116.435842,39.941626,110100023098|110100033066|110100023096,1,1
34,2,2号线,东四十条,1179 628,BV10001047,116.434133,39.933801,110100023098,0,1
35,2,2号线,朝阳门,1179 659,BV10004298,116.434584,39.924499,110100023098|110100023339,1,1
36,2,2号线,建国门,1179 720,BV10013432,116.435806,39.908501,110100023110|110100023098,1,1
37,2,2号线,北京站,1171 759,BV10006813,116.427287,39.904983,110100023098,0,1
38,2,2号线,崇文门,1116 764,BV10013433,116.417093,39.901063,110100023098|110100023100,1,1
39,2,2号线,前门,1045 764,BV10005884,116.397937,39.900192,110100023098,0,1
40,2,2号线,和平门,999 764,BV10013434,116.384209,39.900098,110100023098,0,1
41,2,2号线,宣武门,928 764,BV10013415,116.374314,39.899765,110100023098|110100023076,1,1
42,2,2号线,长椿街,863 758,BV10013435,116.363355,39.899433,110100023098,0,1
43,2,2号线,复兴门,858 720,BV10007375,116.356866,39.907242,110100023110|110100023098,1,1
44,2,2号线,阜成门,858 667,BV10001036,116.356009,39.923686,110100023098,0,1
45,2,2号线,车公庄,858 625,BV10013437,116.354357,39.932397,110100023098|110100023339,1,1
46,2,2号线,西直门,858 585,BV10001595,116.355426,39.940474,110100023098|110100023076,1,1
47,3,4号线大兴线,天宫院,878 1353,BV10003869,116.319932,39.670342,110100023076,0,1
48,3,4号线大兴线,生物医药基地,878 1319,BV10013422,116.321662,39.686510,110100023076,0,1
49,3,4号线大兴线,义和庄,878 1283,BV10010394,116.319079,39.712387,110100023076,0,1
50,3,4号线大兴线,黄村火车站,878 1251,BV10000372,116.332611,39.722966,110100023076,0,1
51,3,4号线大兴线,黄村西大街,878 1216,BV10002783,116.332631,39.731769,110100023076,0,1
52,3,4号线大兴线,清源路,878 1183,BV10013275,116.332513,39.742724,110100023076,0,1
53,3,4号线大兴线,枣园,878 1145,BV10013421,116.332204,39.753458,110100023076,0,1
54,3,4号线大兴线,高米店南,878 1113,BV10013420,116.331605,39.763489,110100023076,0,1
55,3,4号线大兴线,高米店北,878 1066,BV10013419,116.330787,39.773547,110100023076,0,1
56,3,4号线大兴线,西红门,878 1028,BV10000383,116.328689,39.789800,110100023076,0,1
57,3,4号线大兴线,新宫,902 1002,BV10013418,116.365549,39.812592,110100023076,0,1
58,3,4号线大兴线,公益西桥,928 974,BV10008170,116.370796,39.836135,110100023076,0,1
59,3,4号线大兴线,角门西,928 935,BV10013417,116.371154,39.845850,110100023076|110100023282,1,1
60,3,4号线大兴线,马家堡,928 900,BV10009949,116.371361,39.853109,110100023076,0,1
61,3,4号线大兴线,北京南站,928 864,BV10006454,116.378963,39.865029,110100023076|900000028907,1,1
62,3,4号线大兴线,陶然亭,928 831,BV10013416,116.374383,39.878470,110100023076,0,1
63,3,4号线大兴线,菜市口,928 800,BV10013379,116.374425,39.889296,110100023076|110100023054,1,1
64,3,4号线大兴线,宣武门,928 764,BV10013415,116.374314,39.899765,110100023098|110100023076,1,1
65,3,4号线大兴线,西单,928 720,BV10006791,116.374072,39.907383,110100023110|110100023076,1,1
66,3,4号线大兴线,灵境胡同,928 690,BV10008400,116.373746,39.915912,110100023076,0,1
67,3,4号线大兴线,西四,928 660,BV10013414,116.373332,39.924206,110100023076,0,1
68,3,4号线大兴线,平安里,928 625,BV10013413,116.372883,39.933949,110100023076|110100023339,1,1
69,3,4号线大兴线,新街口,926 590,BV10013412,116.367742,39.940667,110100023076,0,1
70,3,4号线大兴线,西直门,858 585,BV10001595,116.355426,39.940474,110100023098|110100023076,1,1
71,3,4号线大兴线,动物园,812 585,BV10006771,116.339031,39.938250,110100023076,0,1
72,3,4号线大兴线,国家图书馆,710 582,BV10000252,116.325190,39.943114,110100023076|110100023116|900000062236,1,1
73,3,4号线大兴线,魏公村,699 544,BV10000255,116.323220,39.957904,110100023076,0,1
74,3,4号线大兴线,人民大学,699 498,BV10000258,116.321367,39.966956,110100023076,0,1
75,3,4号线大兴线,海淀黄庄,699 448,BV10013411,116.317564,39.975996,110100023076|110100023282,1,1
76,3,4号线大兴线,中关村,699 415,BV10013410,116.316467,39.983991,110100023076,0,1
77,3,4号线大兴线,北京大学东门,699 379,BV10013409,116.315842,39.992212,110100023076,0,1
78,3,4号线大兴线,圆明园,699 342,BV10013408,116.310186,39.999662,110100023076,0,1
79,3,4号线大兴线,西苑,636 331,BV10000920,116.290908,39.998258,110100023076|900000062236,1,1
80,3,4号线大兴线,北宫门,573 331,BV10013407,116.277647,40.002373,110100023076,0,1
81,3,4号线大兴线,安河桥北,507 331,BV10013406,116.269956,40.012195,110100023076,0,1
82,4,5号线,宋家庄,1116 935,BV10000743,116.428368,39.845849,110100023100|110100023282|110100023102,1,1
83,4,5号线,刘家窑,1116 895,BV10013438,116.422119,39.857521,110100023100,0,1
84,4,5号线,蒲黄榆,1116 864,BV10006603,116.423720,39.865621,110100023100|900000028907,1,1
85,4,5号线,天坛东门,1116 831,BV10013439,116.420833,39.882558,110100023100,0,1
86,4,5号线,磁器口,1116 800,BV10013383,116.419940,39.893172,110100023100|110100023054,1,1
87,4,5号线,崇文门,1116 764,BV10013433,116.417093,39.901063,110100023098|110100023100,1,1
88,4,5号线,东单,1116 720,BV10013440,116.418480,39.908325,110100023110|110100023100,1,1
89,4,5号线,灯市口,1116 689,BV10013441,116.417783,39.917113,110100023100,0,1
90,4,5号线,东四,1116 659,BV10013442,116.417493,39.924370,110100023100|110100023339,1,1
91,4,5号线,张自忠路,1116 616,BV10001045,116.417156,39.933592,110100023100,0,1
92,4,5号线,北新桥,1116 585,BV10013443,116.416884,39.940782,110100023100,0,1
93,4,5号线,雍和宫,1116 555,BV10006563,116.417069,39.949336,110100023098|110100023100,1,1
94,4,5号线,和平里北街,1116 515,BV10006616,116.418504,39.958734,110100023100,0,1
95,4,5号线,和平西桥,1116 487,BV10001221,116.417975,39.968386,110100023100,0,1
96,4,5号线,惠新西街南口,1116 448,BV10005412,116.417537,39.977121,110100023100|110100023282,1,1
97,4,5号线,惠新西街北口,1116 417,BV10006707,116.417028,39.987836,110100023100,0,1
98,4,5号线,大屯路东,1116 386,BV10013376,116.417377,40.003841,110100023100|110100023070,1,1
99,4,5号线,北苑路北,1116 340,BV10013444,116.418089,40.030436,110100023100,0,1
100,4,5号线,立水桥南,1116 304,BV10004309,116.414496,40.041956,110100023100,0,1
101,4,5号线,立水桥,1116 267,BV10000461,116.412350,40.053032,110100023100|110100033066,1,1
102,4,5号线,天通苑南,1116 223,BV10013445,116.412661,40.066458,110100023100,0,1
103,4,5号线,天通苑,1116 191,BV10013446,116.412759,40.075222,110100023100,0,1
104,4,5号线,天通苑北,1116 160,BV10013447,116.412888,40.083668,110100023100,0,1
105,5,6号线,潞城,2000 772,BV10416639,116.747434,39.902652,110100023339,0,1
106,5,6号线,东夏园,1954 772,BV10416641,116.733850,39.903147,110100023339,0,1
107,5,6号线,郝家府,1912 772,BV10416644,116.717826,39.903195,110100023339,0,1
108,5,6号线,北运河东,1872 772,BV10416651,116.707056,39.903268,110100023339,0,1
109,5,6号线,北运河西,1825 772,BV10416648,116.688358,39.903024,110100023339,0,1
110,5,6号线,通州北关,1747 659,BV10416643,116.661131,39.917962,110100023339,0,1
111,5,6号线,物资学院路,1687 659,BV10416645,116.639316,39.926801,110100023339,0,1
112,5,6号线,草房,1629 659,BV10006882,116.615574,39.924477,110100023339,0,1
113,5,6号线,常营,1580 659,BV10006429,116.599722,39.925696,110100023339,0,1
114,5,6号线,黄渠,1529 659,BV10013505,116.578266,39.924201,110100023339,0,1
115,5,6号线,褡裢坡,1478 659,BV10013506,116.563961,39.924021,110100023339,0,1
116,5,6号线,青年路,1429 659,BV10013507,116.517429,39.923168,110100023339,0,1
117,5,6号线,十里堡,1379 659,BV10000481,116.502045,39.923076,110100023339,0,1
118,5,6号线,金台路,1337 659,BV10008284,116.478115,39.923556,110100023339|900000028907,1,1
119,5,6号线,呼家楼,1279 659,BV10013489,116.461618,39.923337,110100023339|110100023282,1,1
120,5,6号线,东大桥,1229 659,BV10000548,116.451657,39.923054,110100023339,0,1
121,5,6号线,朝阳门,1179 659,BV10004298,116.434584,39.924499,110100023098|110100023339,1,1
122,5,6号线,东四,1116 659,BV10013442,116.417493,39.924370,110100023100|110100023339,1,1
123,5,6号线,南锣鼓巷,1015 625,BV10013392,116.404192,39.933848,110100023339|110100023114,1,1
124,5,6号线,北海北,970 625,BV10013508,116.386829,39.933247,110100023339,0,1
125,5,6号线,平安里,928 625,BV10013413,116.372883,39.933949,110100023076|110100023339,1,1
126,5,6号线,车公庄,858 625,BV10013437,116.354357,39.932397,110100023098|110100023339,1,1
127,5,6号线,车公庄西,798 625,BV10000051,116.344082,39.932466,110100023339,0,1
128,5,6号线,白石桥南,710 625,BV10000061,116.325680,39.933022,110100023339|110100023116,1,1
129,5,6号线,花园桥,635 625,BV10013509,116.310683,39.932340,110100023339,0,1
130,5,6号线,慈寿寺,561 625,BV10013496,116.295467,39.933268,110100023339|110100023282,1,1
131,5,6号线,海淀五路居,487 625,BV10013510,116.276531,39.932584,110100023339,0,1
132,5,6号线,田村,451 625,BV11103939,116.252914,39.929503,110100023339,0,1
133,5,6号线,廖公庄,416 625,BV11103937,116.227292,39.932422,110100023339,0,1
134,5,6号线,西黄村,379 625,BV11103938,116.206932,39.933605,110100023339,0,1
135,5,6号线,杨庄,357 654,BV10827741,116.187004,39.927850,110100023339,0,1
136,5,6号线,金安桥,270 684,BV11494889,116.162586,39.923298,900000069871|110100023339,1,1
137,6,7号线,花庄,1820 1000,BV11253781,116.695495,39.856722,110100023054|110100033086,1,1
138,6,7号线,高楼金,1768 976,BV11303297,116.684340,39.863154,110100023054,0,1
139,6,7号线,群芳,1730 976,BV11303300,116.670792,39.863515,110100023054,0,1
140,6,7号线,万盛东,1691 977,BV11303302,116.657379,39.863491,110100023054,0,1
141,6,7号线,万盛西,1655 977,BV11303299,116.632160,39.863328,110100023054,0,1
142,6,7号线,黑庄户,1616 978,BV11303296,116.599119,39.858725,110100023054,0,1
143,6,7号线,郎辛庄,1579 979,BV11303301,116.569826,39.856496,110100023054,0,1
144,6,7号线,黄厂,1542 979,BV11303298,116.553759,39.848979,110100023054,0,1
145,6,7号线,焦化厂,1508 979,BV10013391,116.537247,39.855488,110100023054,0,1
146,6,7号线,双合,1471 979,BV10416577,116.526836,39.859691,110100023054,0,1
147,6,7号线,垡头,1440 979,BV10007127,116.511821,39.860728,110100023054,0,1
148,6,7号线,欢乐谷景区,1407 919,BV10013389,116.500067,39.866505,110100023054,0,1
149,6,7号线,南楼梓庄,1408 880,BV10013388,116.501084,39.874578,110100023054,0,1
150,6,7号线,化工,1408 840,BV10013387,116.503439,39.887369,110100023054,0,1
151,6,7号线,百子湾,1403 800,BV10000647,116.497768,39.892530,110100023054,0,1
152,6,7号线,大郊亭,1370 800,BV10013386,116.487935,39.893183,110100023054,0,1
153,6,7号线,九龙山,1337 800,BV10006224,116.478695,39.893222,110100023054|900000028907,1,1
154,6,7号线,双井,1279 800,BV10013385,116.461834,39.893512,110100023054|110100023282,1,1
155,6,7号线,广渠门外,1243 800,BV10013384,116.448998,39.893648,110100023054,0,1
156,6,7号线,广渠门内,1185 800,BV10006633,116.433877,39.893673,110100023054,0,1
157,6,7号线,磁器口,1116 800,BV10013383,116.419940,39.893172,110100023100|110100023054,1,1
158,6,7号线,桥湾,1079 800,BV10396213,116.408464,39.892725,110100023054,0,1
159,6,7号线,珠市口,1027 800,BV10013381,116.398104,39.891267,110100023054|900000040279,1,1
160,6,7号线,虎坊桥,976 800,BV10013380,116.384596,39.889486,110100023054,0,1
161,6,7号线,菜市口,928 800,BV10013379,116.374425,39.889296,110100023076|110100023054,1,1
162,6,7号线,广安门内,879 800,BV10396212,116.358239,39.889418,110100023054,0,1
163,6,7号线,达官营,829 800,BV10005975,116.336455,39.889884,110100023054,0,1
164,6,7号线,湾子,764 800,BV10006599,116.327753,39.889954,110100023054,0,1
165,6,7号线,北京西站,710 756,BV10000102,116.321218,39.894706,110100023054|110100023116,1,1
166,7,8号线,中国美术馆,1029 663,BV11095929,116.410803,39.923705,110100023114,0,1
167,7,8号线,南锣鼓巷,1015 625,BV10013392,116.404192,39.933848,110100023339|110100023114,1,1
168,7,8号线,什刹海,1002 590,BV10013462,116.396219,39.937583,110100023114,0,1
169,7,8号线,鼓楼大街,1002 555,BV10013431,116.393776,39.948972,110100023098|110100023114,1,1
170,7,8号线,安德里北街,1002 523,BV10013463,116.395145,39.957227,110100023114,0,1
171,7,8号线,安华桥,1001 497,BV10013464,116.394655,39.968507,110100023114,0,1
172,7,8号线,北土城,1001 449,BV10013465,116.394193,39.976953,110100023114|110100023282,1,1
173,7,8号线,奥体中心,1001 425,BV10013466,116.393759,39.985837,110100023114,0,1
174,7,8号线,奥林匹克公园,1002 384,BV10013375,116.391758,40.002207,110100023114|110100023070,1,1
175,7,8号线,森林公园南门,1003 356,BV10009724,116.392600,40.010122,110100023114,0,1
176,7,8号线,林萃桥,985 344,BV10013467,116.372998,40.021906,110100023114,0,1
177,7,8号线,永泰庄,970 334,BV10000769,116.354580,40.037728,110100023114,0,1
178,7,8号线,西小口,970 307,BV10013468,116.351644,40.046873,110100023114,0,1
179,7,8号线,育新,970 286,BV10013469,116.347328,40.060039,110100023114,0,1
180,7,8号线,霍营,970 267,BV10007658,116.360286,40.071857,110100023114|110100033066,1,1
181,7,8号线,回龙观东大街,970 227,BV10004378,116.363025,40.081175,110100023114,0,1
182,7,8号线,平西府,929 202,BV10000887,116.350425,40.090607,110100023114,0,1
183,7,8号线,育知路,898 202,BV10013470,116.326992,40.087863,110100023114,0,1
184,7,8号线,朱辛庄,843 202,BV10000571,116.313698,40.104297,110100023114|110100023118,1,1
185,8,8号线南段,珠市口,1027 800,BV10013381,116.398104,39.891267,110100023054|900000040279,1,1
186,8,8号线南段,天桥,1027 831,BV10545379,116.398712,39.881920,900000040279,0,1
187,8,8号线南段,永定门外,1027 864,BV10013368,116.399369,39.867435,900000040279|900000028907,1,1
188,8,8号线南段,木樨园,1027 887,BV10545382,116.399839,39.859262,900000040279,0,1
189,8,8号线南段,海户屯,1027 909,BV10545380,116.400301,39.851805,900000040279,0,1
190,8,8号线南段,大红门南,1027 973,BV10545381,116.401045,39.836715,900000040279,0,1
191,8,8号线南段,和义,1027 1002,BV10545383,116.402073,39.814838,900000040279,0,1
192,8,8号线南段,东高地,1045 1031,BV10545377,116.409427,39.805074,900000040279,0,1
193,8,8号线南段,火箭万源,1068 1064,BV10545376,116.418627,39.799287,900000040279,0,1
194,8,8号线南段,五福堂,1090 1095,BV10545378,116.423903,39.785046,900000040279,0,1
195,8,8号线南段,德茂,1115 1131,BV10815503,116.441617,39.772709,900000040279,0,1
196,8,8号线南段,瀛海,1144 1171,BV10815504,116.448958,39.760694,900000040279,0,1
197,9,9号线,郭公庄,620 977,BV10007779,116.301889,39.814322,110100023116|110100023092,1,1
198,9,9号线,丰台科技园,620 950,BV10013471,116.297176,39.825233,110100023116,0,1
199,9,9号线,科怡路,620 924,BV10013472,116.297432,39.832480,110100023116,0,1
200,9,9号线,丰台南路,620 900,BV10013473,116.296748,39.840444,110100023116,0,1
201,9,9号线,丰台东大街,619 876,BV10013474,116.293857,39.855111,110100023116,0,1
202,9,9号线,七里庄,619 852,BV10000636,116.294292,39.866773,110100023116|110100023068,1,1
203,9,9号线,六里桥,650 804,BV10013475,116.302808,39.880239,110100023116|110100023282,1,1
204,9,9号线,六里桥东,675 784,BV10000269,116.315142,39.886886,110100023116,0,1
205,9,9号线,北京西站,710 756,BV10000102,116.321218,39.894706,110100023054|110100023116,1,1
206,9,9号线,军事博物馆,710 720,BV10000188,116.321459,39.907422,110100023110|110100023116,1,1
207,9,9号线,白堆子,710 670,BV10013476,116.325762,39.923818,110100023116,0,1
208,9,9号线,白石桥南,710 625,BV10000061,116.325680,39.933022,110100023339|110100023116,1,1
209,9,9号线,国家图书馆,710 582,BV10000252,116.325190,39.943114,110100023076|110100023116|900000062236,1,1
210,10,10号线,巴沟,602 448,BV10013394,116.293727,39.974179,110100023282|110100023060,1,1
211,10,10号线,苏州街,645 448,BV10013485,116.306332,39.975642,110100023282,0,1
212,10,10号线,海淀黄庄,699 448,BV10013411,116.317564,39.975996,110100023076|110100023282,1,1
213,10,10号线,知春里,794 448,BV10001215,116.328709,39.976334,110100023282,0,1
214,10,10号线,知春路,843 448,BV10001218,116.339960,39.976476,110100023282,1,1
215,10,10号线,西土城,879 448,BV10013486,116.354098,39.976549,110100023282,0,1
216,10,10号线,牡丹园,922 448,BV10000017,116.369844,39.976603,110100023282,0,0
217,10,10号线,健德门,969 448,BV10004058,116.381353,39.976723,110100023282,0,1
218,10,10号线,北土城,1001 449,BV10013465,116.394193,39.976953,110100023114|110100023282,1,1
219,10,10号线,安贞门,1085 448,BV10013487,116.405954,39.977005,110100023282,0,1
220,10,10号线,惠新西街南口,1116 448,BV10005412,116.417537,39.977121,110100023100|110100023282,1,1
221,10,10号线,芍药居,1201 448,BV10006575,116.435914,39.977636,110100023282|110100033066,1,1
222,10,10号线,太阳宫,1262 448,BV10013488,116.447469,39.972678,110100023282,0,1
223,10,10号线,三元桥,1279 495,BV10000199,116.456997,39.961508,110100023282|110100023096,1,1
224,10,10号线,亮马桥,1279 534,BV10000196,116.461794,39.949415,110100023282,0,1
225,10,10号线,农业展览馆,1279 570,BV10001223,116.461724,39.941344,110100023282,0,1
226,10,10号线,团结湖,1279 607,BV10011994,116.461806,39.933747,110100023282,0,1
227,10,10号线,呼家楼,1279 659,BV10013489,116.461618,39.923337,110100023339|110100023282,1,1
228,10,10号线,金台夕照,1279 690,BV10013490,116.461743,39.916838,110100023282,0,1
229,10,10号线,国贸,1279 720,BV10013461,116.461841,39.909104,110100023110|110100023282,1,1
230,10,10号线,双井,1279 800,BV10013385,116.461834,39.893512,110100023054|110100023282,1,1
231,10,10号线,劲松,1279 817,BV10007162,116.461325,39.884387,110100023282,0,1
232,10,10号线,潘家园,1279 840,BV10000543,116.460926,39.875387,110100023282,0,1
233,10,10号线,十里河,1279 864,BV10013367,116.457983,39.866417,110100023282|900000028907,1,1
234,10,10号线,分钟寺,1227 935,BV10007166,116.453976,39.852227,110100023282,0,1
235,10,10号线,成寿寺,1179 935,BV10013491,116.447531,39.845874,110100023282,0,1
236,10,10号线,宋家庄,1116 935,BV10000743,116.428368,39.845849,110100023100|110100023282|110100023102,1,1
237,10,10号线,石榴庄,1069 935,BV10013492,116.414103,39.845905,110100023282,0,1
238,10,10号线,大红门,1021 935,BV10000737,116.399154,39.845383,110100023282,0,1
239,10,10号线,角门东,974 935,BV10013493,116.385649,39.845135,110100023282,0,1
240,10,10号线,角门西,928 935,BV10013417,116.371154,39.845850,110100023076|110100023282,1,1
241,10,10号线,草桥,869 935,BV10000222,116.351387,39.845869,110100023282|900000076659,1,1
242,10,10号线,纪家庙,812 935,BV10006086,116.333381,39.844433,110100023282,0,1
243,10,10号线,首经贸,753 935,BV10013494,116.320202,39.844463,110100023282|110100023092,1,1
244,10,10号线,丰台站,688 935,BV10013495,116.304540,39.849639,110100023282,0,1
245,10,10号线,泥洼,650 892,BV10003566,116.304173,39.858609,110100023282,0,1
246,10,10号线,西局,650 852,BV10000215,116.303819,39.866770,110100023282|110100023068,1,1
247,10,10号线,六里桥,650 804,BV10013475,116.302808,39.880239,110100023116|110100023282,1,1
248,10,10号线,莲花桥,650 765,BV10002829,116.310347,39.897867,110100023282,0,1
249,10,10号线,公主坟,650 720,BV10000306,116.309919,39.907469,110100023110|110100023282,1,1
250,10,10号线,西钓鱼台,605 672,BV10002778,116.298064,39.923481,110100023282,0,1
251,10,10号线,慈寿寺,561 625,BV10013496,116.295467,39.933268,110100023339|110100023282,1,1
252,10,10号线,车道沟,561 579,BV10012405,116.293818,39.947923,110100023282,0,1
253,10,10号线,长春桥,561 534,BV10007535,116.294255,39.958527,110100023282,0,1
254,10,10号线,火器营,561 490,BV10007538,116.289058,39.965938,110100023282,0,1
255,11,13号线,西直门,858 585,BV10001595,116.355426,39.940474,110100023098|110100023076,1,1
256,11,13号线,大钟寺,843 523,BV10001016,116.345139,39.966612,110100033066,0,1
257,11,13号线,知春路,843 448,BV10001218,116.339960,39.976476,110100023282,1,1
258,11,13号线,五道口,843 418,BV10006886,116.337742,39.992894,110100033066,0,1
259,11,13号线,上地,843 385,BV10013516,116.320193,40.033007,110100033066,0,1
260,11,13号线,清河站,843 327,BV11467455,116.314797,40.041090,110100033066,0,1
261,11,13号线,西二旗,843 299,BV10007027,116.306295,40.053034,110100033066|110100023118,1,1
262,11,13号线,龙泽,883 267,BV10013515,116.319429,40.070882,110100033066,0,1
263,11,13号线,回龙观,931 267,BV10013514,116.336116,40.070800,110100033066,0,1
264,11,13号线,霍营,970 267,BV10007658,116.360286,40.071857,110100023114|110100033066,1,1
265,11,13号线,立水桥,1116 267,BV10000461,116.412350,40.053032,110100023100|110100033066,1,1
266,11,13号线,北苑,1201 340,BV10000150,116.434518,40.042997,110100033066,0,1
267,11,13号线,望京西,1201 386,BV10013377,116.449884,39.995724,110100033066|110100023070,1,1
268,11,13号线,芍药居,1201 448,BV10006575,116.435914,39.977636,110100023282|110100033066,1,1
269,11,13号线,光熙门,1201 502,BV10013512,116.431761,39.968337,110100033066,0,1
270,11,13号线,柳芳,1201 543,BV10013511,116.432728,39.958157,110100033066,0,1
271,11,13号线,东直门,1179 586,BV10002731,116.435842,39.941626,110100023098|110100033066|110100023096,1,1
272,12,14号线东段,善各庄,1258 293,BV10416596,116.478195,40.027160,900000028907,0,1
273,12,14号线东段,来广营,1258 323,BV10416588,116.466994,40.020588,900000028907,0,1
274,12,14号线东段,东湖渠,1259 353,BV10416590,116.467412,40.010670,900000028907,0,1
275,12,14号线东段,望京,1259 386,BV10013356,116.469409,39.998521,900000028907|110100023070,1,1
276,12,14号线东段,阜通,1267 424,BV10416592,116.471740,39.991699,900000028907,0,1
277,12,14号线东段,望京南,1300 456,BV10416591,116.481634,39.984634,900000028907,0,1
278,12,14号线东段,将台,1337 522,BV10416595,116.489496,39.971109,900000028907,0,1
279,12,14号线东段,东风北桥,1337 554,BV10416594,116.485919,39.958375,900000028907,0,1
280,12,14号线东段,枣营,1337 586,BV10416587,116.474947,39.944132,900000028907,0,1
281,12,14号线东段,朝阳公园,1336 622,BV10416593,116.478291,39.933492,900000028907,0,1
282,12,14号线东段,金台路,1337 659,BV10008284,116.478115,39.923556,110100023339|900000028907,1,1
283,12,14号线东段,大望路,1337 720,BV10013364,116.475783,39.908287,110100023110|900000028907,1,1
284,12,14号线东段,九龙山,1337 800,BV10006224,116.478695,39.893222,110100023054|900000028907,1,1
285,12,14号线东段,平乐园,1337 829,BV10007475,116.477307,39.885275,900000028907,0,1
286,12,14号线东段,北工大西门,1337 846,BV10590953,116.477319,39.875445,900000028907,0,1
287,12,14号线东段,十里河,1279 864,BV10013367,116.457983,39.866417,110100023282|900000028907,1,1
288,12,14号线东段,方庄,1201 864,BV10012561,116.440244,39.865868,900000028907,0,1
289,12,14号线东段,蒲黄榆,1116 864,BV10006603,116.423720,39.865621,110100023100|900000028907,1,1
290,12,14号线东段,景泰,1079 864,BV10590951,116.411027,39.865255,900000028907,0,1
291,12,14号线东段,永定门外,1027 864,BV10013368,116.399369,39.867435,900000040279|900000028907,1,1
292,12,14号线东段,北京南站,928 864,BV10006454,116.378963,39.865029,110100023076|900000028907,1,1
293,13,14号线西段,西局,650 852,BV10000215,116.303819,39.866770,110100023282|110100023068,1,1
294,13,14号线西段,七里庄,619 852,BV10000636,116.294292,39.866773,110100023116|110100023068,1,1
295,13,14号线西段,大井,545 852,BV10006219,116.276061,39.865226,110100023068,0,1
296,13,14号线西段,郭庄子,497 852,BV10013400,116.253068,39.864841,110100023068,0,1
297,13,14号线西段,大瓦窑,453 852,BV10007072,116.240480,39.859470,110100023068,0,1
298,13,14号线西段,园博园,410 852,BV10013401,116.201643,39.861328,110100023068,0,1
299,13,14号线西段,张郭庄,360 852,BV10006917,116.187193,39.858100,110100023068,0,1
300,14,15号线,俸伯,1469 143,BV10002186,116.684732,40.132573,110100023070,0,1
301,14,15号线,顺义,1434 143,BV10013405,116.657023,40.129994,110100023070,0,1
302,14,15号线,石门,1396 143,BV10013404,116.641117,40.129802,110100023070,0,1
303,14,15号线,南法信,1357 143,BV10002190,116.609535,40.128478,110100023070,0,1
304,14,15号线,后沙峪,1344 177,BV10009387,116.564211,40.114127,110100023070,0,1
305,14,15号线,花梨坎,1344 211,BV10002223,116.557593,40.084436,110100023070,0,1
306,14,15号线,国展,1344 246,BV10013403,116.555127,40.070030,110100023070,0,1
307,14,15号线,孙河,1344 279,BV10002193,116.534700,40.045113,110100023070,0,1
308,14,15号线,马泉营,1344 313,BV10011274,116.503480,40.033721,110100023070,0,1
309,14,15号线,崔各庄,1344 348,BV10000963,116.492968,40.022201,110100023070,0,1
310,14,15号线,望京东,1336 381,BV10013402,116.487105,40.003200,110100023070,0,1
311,14,15号线,望京,1259 386,BV10013356,116.469409,39.998521,900000028907|110100023070,1,1
312,14,15号线,望京西,1201 386,BV10013377,116.449884,39.995724,110100033066|110100023070,1,1
313,14,15号线,关庄,1160 386,BV10416640,116.430947,40.001134,110100023070,0,1
314,14,15号线,大屯路东,1116 386,BV10013376,116.417377,40.003841,110100023100|110100023070,1,1
315,14,15号线,安立路,1065 385,BV10416647,116.407845,40.002619,110100023070,0,1
316,14,15号线,奥林匹克公园,1002 384,BV10013375,116.391758,40.002207,110100023114|110100023070,1,1
317,14,15号线,北沙滩,976 384,BV10416650,116.368143,40.001492,110100023070,0,1
318,14,15号线,六道口,923 384,BV10416642,116.352670,40.000958,110100023070,0,1
319,14,15号线,清华东路西口,883 383,BV10416646,116.339530,40.000673,110100023070,0,1
320,15,16号线,北安河,354 173,BV10740312,116.130428,40.068128,900000062236,0,1
321,15,16号线,温阳路,420 173,BV10740317,116.161361,40.068516,900000062236,0,1
322,15,16号线,稻香湖路,481 173,BV10711029,116.188145,40.068936,900000062236,0,1
323,15,16号线,屯佃,541 173,BV10740314,116.215850,40.068454,900000062236,0,1
324,15,16号线,永丰,606 173,BV10740319,116.238481,40.071868,900000062236,0,1
325,15,16号线,永丰南,635 208,BV10740315,116.248154,40.065575,900000062236,0,1
326,15,16号线,西北旺,635 239,BV10740313,116.257923,40.048703,900000062236,0,1
327,15,16号线,马连洼,636 269,BV10740318,116.272520,40.032637,900000062236,0,1
328,15,16号线,农大南路,636 299,BV10740316,116.282272,40.021398,900000062236,0,1
329,15,16号线,西苑,636 331,BV10000920,116.290908,39.998258,110100023076|900000062236,1,1
330,15,16号线,万泉河桥,636 391,BV10531973,116.300157,39.985067,900000062236,0,1
331,15,16号线,苏州桥,636 494,BV10007288,116.308092,39.962052,900000062236,0,1
332,15,16号线,万寿寺,636 541,BV10000208,116.309904,39.947773,900000062236,0,1
333,15,16号线,国家图书馆,710 582,BV10000252,116.325190,39.943114,110100023076|110100023116|900000062236,1,1
334,15,16号线,甘家口,766 671,BV10013501,116.334534,39.923392,900000062236,0,1
335,16,八通线,四惠,1374 724,BV10000275,116.495456,39.908749,110100023110|110100033086,1,1
336,16,八通线,四惠东,1409 724,BV10007589,116.515664,39.908495,110100023110|110100033086,1,1
337,16,八通线,高碑店,1463 728,BV10013517,116.531421,39.909448,110100033086,0,1
338,16,八通线,传媒大学,1522 728,BV10013518,116.554639,39.909215,110100033086,0,1
339,16,八通线,双桥,1564 728,BV10013519,116.576709,39.910139,110100033086,0,1
340,16,八通线,管庄,1603 728,BV10004294,116.599002,39.909090,110100033086,0,1
341,16,八通线,八里桥,1646 729,BV10001118,116.618658,39.906121,110100033086,0,1
342,16,八通线,通州北苑,1688 775,BV10004143,116.637252,39.903864,110100033086,0,1
343,16,八通线,果园,1711 809,BV10004141,116.646606,39.893393,110100033086,0,1
344,16,八通线,九棵树,1732 840,BV10001298,116.657533,39.890278,110100033086,0,1
345,16,八通线,梨园,1753 871,BV10002455,116.668720,39.883677,110100033086,0,1
346,16,八通线,临河里,1775 904,BV10013520,116.678811,39.875496,110100033086,0,1
347,16,八通线,土桥,1798 937,BV10004138,116.686349,39.871926,110100033086,0,1
348,16,八通线,花庄,1820 1000,BV11253781,116.695495,39.856722,110100023054|110100033086,1,1
349,17,昌平线,昌平西山口,520 0,BV10550714,116.195371,40.244624,110100023118,0,1
350,17,昌平线,十三陵景区,586 13,BV10013483,116.207729,40.240255,110100023118,0,1
351,17,昌平线,昌平,654 48,BV10013482,116.233590,40.220550,110100023118,0,1
352,17,昌平线,昌平东关,733 48,BV10550716,116.262059,40.221726,110100023118,0,1
353,17,昌平线,北邵洼,818 48,BV10550715,116.281949,40.222001,110100023118,0,1
354,17,昌平线,南邵,843 82,BV10001633,116.287534,40.207492,110100023118,0,1
355,17,昌平线,沙河高教园,843 113,BV10013477,116.280465,40.164666,110100023118,0,1
356,17,昌平线,沙河,843 144,BV10000338,116.288865,40.148278,110100023118,0,1
357,17,昌平线,巩华城,843 173,BV10013478,116.293979,40.130900,110100023118,0,1
358,17,昌平线,朱辛庄,843 202,BV10000571,116.313698,40.104297,110100023114|110100023118,1,1
359,17,昌平线,生命科学园,843 230,BV10000877,116.294230,40.094790,110100023118,0,1
360,17,昌平线,西二旗,843 299,BV10007027,116.306295,40.053034,110100033066|110100023118,1,1
361,18,大兴国际机场线,草桥,869 935,BV10000222,116.351387,39.845869,110100023282|900000076659,1,1
362,18,大兴国际机场线,大兴新城,977 1229,BV10877516,116.365522,39.735583,900000076659,0,1
363,18,大兴国际机场线,大兴机场,977 1528,BV11146181,116.416725,39.511375,900000076659,0,1
364,19,房山线,阎村东,327 1176,BV10561755,116.100817,39.729028,110100023092|900000029622,1,1
365,19,房山线,苏庄,367 1176,BV10003977,116.125306,39.723188,110100023092,0,1
366,19,房山线,良乡南关,402 1176,BV10013427,116.140804,39.723202,110100023092,0,1
367,19,房山线,良乡大学城西,439 1176,BV10003994,116.156282,39.723157,110100023092,0,1
368,19,房山线,良乡大学城,473 1175,BV10003965,116.176541,39.723159,110100023092,0,1
369,19,房山线,良乡大学城北,511 1149,BV10003967,116.183480,39.729906,110100023092,0,1
370,19,房山线,广阳城,529 1120,BV10013426,116.184985,39.747930,110100023092,0,1
371,19,房山线,篱笆房,548 1091,BV10001096,116.189486,39.760636,110100023092,0,1
372,19,房山线,长阳,566 1061,BV10013425,116.212692,39.763871,110100023092,0,1
373,19,房山线,稻田,585 1033,BV10013424,116.218840,39.794885,110100023092,0,1
374,19,房山线,大葆台,602 1005,BV10013423,116.291681,39.807810,110100023092,0,1
375,19,房山线,郭公庄,620 977,BV10007779,116.301889,39.814322,110100023116|110100023092,1,1
376,19,房山线,白盆窑,663 963,BV10563755,116.313391,39.819590,110100023092,0,1
377,19,房山线,花乡东桥,708 949,BV10563754,116.320160,39.829272,110100023092,0,1
378,19,房山线,首经贸,753 935,BV10013494,116.320202,39.844463,110100023282|110100023092,1,1
379,19,房山线,东管头南,798 918,BV10562654,116.321319,39.852631,110100023092,0,1
380,20,首都机场线,T3航站楼,1620 310,BV10009415,116.615583,40.052657,110100023096,0,1
381,20,首都机场线,T2航站楼,1571 307,BV10013428,116.592808,40.079311,110100023096,0,1
382,20,首都机场线,三元桥,1279 495,BV10000199,116.456997,39.961508,110100023282|110100023096,1,1
383,20,首都机场线,东直门,1179 586,BV10002731,116.435842,39.941626,110100023098|110100033066|110100023096,1,1
384,21,西郊线,巴沟,602 448,BV10013394,116.293727,39.974179,110100023282|110100023060,1,1
385,21,西郊线,颐和园西门,479 413,BV10968850,116.263248,39.985697,110100023060,0,1
386,21,西郊线,茶棚,411 413,BV10968847,116.248100,39.982113,110100023060,0,1
387,21,西郊线,万安,354 400,BV10968866,116.231977,39.984001,110100023060,0,1
388,21,西郊线,植物园,340 373,BV10968849,116.214853,39.993582,110100023060,0,1
389,21,西郊线,香山,291 373,BV10968848,116.204491,39.994056,110100023060,0,1
390,22,燕房线,阎村东,327 1176,BV10561755,116.100817,39.729028,110100023092|900000029622,1,1
391,22,燕房线,紫草坞,287 1176,BV10420734,116.086720,39.724606,900000029622,0,1
392,22,燕房线,阎村,247 1176,BV10420737,116.080165,39.716731,900000029622,0,1
393,22,燕房线,星城,206 1176,BV10420735,116.061370,39.713681,900000029622,0,1
394,22,燕房线,大石河东,165 1176,BV10881795,116.039906,39.709893,900000029622,0,1
395,22,燕房线,马各庄,124 1176,BV10420736,116.016606,39.705103,900000029622,0,1
396,22,燕房线,饶乐府,84 1176,BV10420727,116.006103,39.701471,900000029622,0,1
397,22,燕房线,房山城关,43 1176,BV10420731,115.989599,39.706061,900000029622,0,1
398,22,燕房线,燕山,0 1176,BV10420733,115.973395,39.719615,900000029622,0,1
399,23,亦庄线,宋家庄,1116 935,BV10000743,116.428368,39.845849,110100023100|110100023282|110100023102,1,1
400,23,亦庄线,肖村,1116 969,BV10011446,116.448364,39.834217,110100023102,0,1
401,23,亦庄线,小红门,1136 999,BV10012008,116.459226,39.827951,110100023102,0,1
402,23,亦庄线,旧宫,1152 1023,BV10000335,116.460789,39.806910,110100023102,0,1
403,23,亦庄线,亦庄桥,1167 1046,BV10013453,116.480307,39.803011,110100023102,0,1
404,23,亦庄线,亦庄文化园,1185 1072,BV10013452,116.490632,39.806890,110100023102,0,1
405,23,亦庄线,万源街,1201 1097,BV10013451,116.505403,39.802971,110100023102,0,1
406,23,亦庄线,荣京东街,1219 1122,BV10003511,116.513321,39.793189,110100023102,0,1
407,23,亦庄线,荣昌东街,1235 1147,BV10013450,116.521688,39.782832,110100023102,0,1
408,23,亦庄线,同济南路,1273 1174,BV10007921,116.539901,39.772962,110100023102,0,1
409,23,亦庄线,经海路,1327 1174,BV10013449,116.562321,39.783673,110100023102,0,1
410,23,亦庄线,次渠南,1380 1174,BV10013448,116.581357,39.795118,110100023102,0,1
411,23,亦庄线,次渠,1432 1174,BV10011266,116.591502,39.803500,110100023102,0,1
412,23,亦庄线,亦庄火车站,1479 1174,BV10013399,116.601913,39.812607,110100023102,0,1
