,route_index,route_name,name,stop_id,stop_poi_id,lon,lat,route,trans,su
0,0,1号线,火车东站,1630 299,BV10703060,108.414091,22.839677,900000058314,0,1
1,0,1号线,佛子岭,1732 341,BV10703058,108.424884,22.831844,900000058314,0,1
2,0,1号线,百花岭,1732 394,BV10703064,108.427946,22.818109,900000058314,0,1
3,0,1号线,埌东客运站,1669 452,BV10703059,108.418641,22.812921,900000058314,0,1
4,0,1号线,凤岭,1581 452,BV10703061,108.410346,22.813119,900000058314,0,1
5,0,1号线,东盟商务区,1503 452,BV10703062,108.399059,22.813064,900000058314,0,1
6,0,1号线,万象城,1414 452,BV10703065,108.392022,22.813041,900000058314,0,1
7,0,1号线,会展中心,1344 452,BV10703057,108.383728,22.812865,900000058314,0,1
8,0,1号线,金湖广场,1272 452,BV10703063,108.372356,22.812895,900000058314|900000067049,1,1
9,0,1号线,南湖,1209 452,BV10532019,108.363067,22.813671,900000058314,0,1
10,0,1号线,麻村,1120 452,BV10532012,108.347473,22.813014,900000058314,0,1
11,0,1号线,民族广场,996 452,BV10532002,108.336350,22.813048,900000058314,0,1
12,0,1号线,新民路,832 451,BV10532010,108.327324,22.813042,900000058314,0,1
13,0,1号线,朝阳广场,721 415,BV10532020,108.320842,22.817093,900000058314|900000060985,1,1
14,0,1号线,火车站,721 375,BV10532008,108.316335,22.824874,900000058314|900000060985,1,1
15,0,1号线,白苍岭,664 350,BV10532005,108.307154,22.831070,900000058314,0,1
16,0,1号线,广西大学,600 350,BV10532009,108.291111,22.831607,900000058314,0,1
17,0,1号线,鲁班路,519 350,BV10532018,108.283012,22.834074,900000058314,0,1
18,0,1号线,动物园,455 350,BV10532016,108.267771,22.837805,900000058314,0,1
19,0,1号线,清川,364 350,BV10532003,108.253119,22.840172,900000058314,0,1
20,0,1号线,民族大学,277 350,BV10532026,108.233018,22.837229,900000058314,0,1
21,0,1号线,西乡塘客运站,195 350,BV10532017,108.219156,22.832924,900000058314,0,1
22,0,1号线,鹏飞路,135 350,BV10532014,108.202283,22.833056,900000058314,0,1
23,0,1号线,南职院,79 350,BV10532022,108.192244,22.833130,900000058314,0,1
24,0,1号线,石埠,0 350,BV10532023,108.177596,22.826528,900000058314,0,1
25,1,2号线,西津,727 0,BV10730203,108.298459,22.889270,900000060985,0,1
26,1,2号线,安吉客运站,727 59,BV10730199,108.297843,22.879757,900000060985|900000067049,1,1
27,1,2号线,苏卢,727 123,BV10730198,108.299553,22.868884,900000060985,0,1
28,1,2号线,三十三中,727 187,BV10730201,108.302241,22.857976,900000060985,0,1
29,1,2号线,秀厢,727 245,BV10730191,108.306686,22.848542,900000060985,0,1
30,1,2号线,明秀路,727 321,BV10730205,108.312746,22.839235,900000060985,0,1
31,1,2号线,火车站,721 375,BV10532008,108.316335,22.824874,900000058314|900000060985,1,1
32,1,2号线,朝阳广场,721 415,BV10532020,108.320842,22.817093,900000058314|900000060985,1,1
33,1,2号线,南宁剧场,728 484,BV10730200,108.313648,22.804174,900000060985,0,1
34,1,2号线,福建园,729 558,BV10730197,108.311290,22.794893,900000060985,0,1
35,1,2号线,亭洪路,729 603,BV10730196,108.311402,22.788898,900000060985,0,1
36,1,2号线,石柱岭,730 644,BV10730193,108.311485,22.781518,900000060985,0,1
37,1,2号线,江南客运站,731 685,BV10730204,108.312121,22.766625,900000060985,0,1
38,1,2号线,大沙田,731 728,BV10730194,108.316759,22.760811,900000060985|900000073499,1,1
39,1,2号线,建设路,731 771,BV10730195,108.318320,22.751820,900000060985,0,1
40,1,2号线,石子塘,731 813,BV10730202,108.324374,22.741181,900000060985,0,1
41,1,2号线,金象,731 887,BV10730190,108.332244,22.731297,900000060985,0,1
42,1,2号线,玉洞,731 971,BV10730192,108.336650,22.722533,900000060985,0,1
43,1,2号线,东风路,903 1004,BV11457397,108.352286,22.719540,900000060985,0,1
44,1,2号线,玉岭路,1039 1004,BV11457400,108.360239,22.721532,900000060985,0,1
45,1,2号线,那福路,1160 1004,BV11457399,108.373548,22.724965,900000060985,0,1
46,1,2号线,平良立交,1281 1004,BV10793339,108.383758,22.726373,900000060985|900000067049,1,1
47,1,2号线,坛泽,1383 1004,BV11457398,108.393513,22.726328,900000060985,0,1
48,2,3号线,科园大道,570 59,BV10793338,108.269300,22.878325,900000067049,0,1
49,2,3号线,创业路,646 59,BV10793334,108.283924,22.878842,900000067049,0,1
50,2,3号线,安吉客运站,727 59,BV10730199,108.297843,22.879757,900000060985|900000067049,1,1
51,2,3号线,北湖北路,834 59,BV10793329,108.316253,22.875570,900000067049,0,1
52,2,3号线,秀峰路,931 59,BV10793346,108.331253,22.878222,900000067049,0,1
53,2,3号线,邕武路,1040 59,BV10793332,108.340209,22.875565,900000067049,0,1
54,2,3号线,大鸡村,1157 60,BV10793344,108.350972,22.872549,900000067049,0,1
55,2,3号线,兴桂路,1266 86,BV10793331,108.356508,22.864507,900000067049,0,1
56,2,3号线,小鸡村,1268 145,BV10793327,108.356139,22.856240,900000067049,0,1
57,2,3号线,东沟岭,1268 213,BV10793328,108.354822,22.845337,900000067049,0,1
58,2,3号线,长堽路,1270 274,BV10793330,108.356054,22.835859,900000067049,0,1
59,2,3号线,东葛路,1271 336,BV10793341,108.360007,22.830017,900000067049,0,1
60,2,3号线,滨湖路,1272 392,BV10793333,108.369485,22.824915,900000067049,0,1
61,2,3号线,金湖广场,1272 452,BV10703063,108.372356,22.812895,900000058314|900000067049,1,1
62,2,3号线,埌西,1274 499,BV10793336,108.366096,22.805990,900000067049,0,1
63,2,3号线,青竹立交,1275 553,BV10793347,108.364177,22.799171,900000067049,0,1
64,2,3号线,青秀山,1275 607,BV10793335,108.368606,22.792524,900000067049,0,1
65,2,3号线,市博物馆,1276 676,BV10793342,108.376107,22.775110,900000067049,0,1
66,2,3号线,总部基地,1276 728,BV10793337,108.376263,22.767619,900000067049|900000073499,1,1
67,2,3号线,广西规划馆,1277 791,BV10793340,108.377809,22.757164,900000067049,0,1
68,2,3号线,庆歌路,1278 864,BV10793345,108.383394,22.750251,900000067049,0,1
69,2,3号线,五象湖,1279 938,BV10793343,108.383807,22.739034,900000067049,0,1
70,2,3号线,平良立交,1281 1004,BV10793339,108.383758,22.726373,900000060985|900000067049,1,1
71,3,4号线,洪运路,347 728,BV10843429,108.242697,22.765316,900000073499,0,1
72,3,4号线,那历村,410 728,BV10843420,108.258885,22.760778,900000073499,0,1
73,3,4号线,那洪立交,475 728,BV10843427,108.270928,22.762138,900000073499,0,1
74,3,4号线,金阳路,551 728,BV10843428,108.281459,22.760831,900000073499,0,1
75,3,4号线,通源路,639 728,BV10843435,108.299888,22.758542,900000073499,0,1
76,3,4号线,大沙田,731 728,BV10730194,108.316759,22.760811,900000060985|900000073499,1,1
77,3,4号线,金象大道,848 728,BV10843433,108.323187,22.760766,900000073499,0,1
78,3,4号线,五象岭,981 728,BV10843421,108.338012,22.761276,900000073499,0,1
79,3,4号线,玉象路,1133 728,BV10843424,108.360984,22.768445,900000073499,0,1
80,3,4号线,总部基地,1276 728,BV10793337,108.376263,22.767619,900000067049|900000073499,1,1
81,3,4号线,飞龙路,1351 727,BV10843434,108.386229,22.76636,900000073499,0,1
82,3,4号线,体育中心西,1431 727,BV10843430,108.39088,22.76566,900000073499,0,1
83,3,4号线,体育中心东,1521 728,BV10843425,108.399177,22.760771,900000073499,0,1
84,3,4号线,良庆大桥南,1609 728,BV10843431,108.408662,22.75323,900000073499,0,1
85,3,4号线,良庆圩,1704 728,BV10843423,108.416659,22.752697,900000073499,0,1
86,3,4号线,楞塘村,1778 728,BV10843436,108.428541,22.754835,900000073499,0,1
